,City,Cloudiness,Country,Date,Humidity,Lat,Lng,Max Temp,Wind Speed
0,Jamestown,90,US,1603077635,62,42.1,-79.24,55.0,10.29
1,Vaini,75,TO,1603077853,78,-21.2,-175.2,73.4,10.29
2,Albany,88,US,1603077819,64,42.6,-73.97,54.0,7.38
3,Rikitea,100,PF,1603077853,81,-23.12,-134.97,74.7,18.66
4,Vikravāndi,100,IN,1603077853,73,12.03,79.55,81.55,7.11
5,Tuktoyaktuk,40,CA,1603077854,92,69.45,-133.04,14.0,2.24
6,Pevek,18,RU,1603077854,94,69.7,170.31,26.65,16.51
7,Vega de Alatorre,16,MX,1603077854,81,20.03,-96.63,76.8,3.83
8,Chicama,9,PE,1603077854,80,-7.84,-79.15,63.75,4.81
9,Busselton,13,AU,1603077854,36,-33.65,115.33,80.01,6.02
10,Mataura,100,NZ,1603077854,95,-46.19,168.86,46.76,4.54
11,Yamethin,100,MM,1603077854,64,20.43,96.15,83.43,1.48
12,Bluff,100,NZ,1603077854,81,-46.6,168.33,48.58,12.17
13,Torbay,90,CA,1603077854,100,47.67,-52.73,53.01,2.24
14,Tessalit,0,ML,1603077854,19,20.2,1.01,78.62,8.72
15,Puerto Ayora,100,EC,1603077854,93,-0.74,-90.35,70.0,8.01
16,Yarega,100,RU,1603077854,98,63.44,53.58,29.52,7.29
17,Seoul,0,KR,1603077582,59,37.57,126.98,66.2,2.24
18,Barrow,90,US,1603077854,79,71.29,-156.79,23.0,14.99
19,Saskylakh,100,RU,1603077854,97,71.92,114.08,19.29,6.17
20,Bridlington,66,GB,1603077854,93,54.08,-0.19,48.2,5.82
21,Kupang,20,ID,1603077855,41,-10.17,123.58,95.0,16.11
22,Xining,100,CN,1603077855,57,36.62,101.77,43.21,2.08
23,Tiksi,93,RU,1603077855,94,71.69,128.87,16.34,17.92
24,Balyqshy,0,KZ,1603077855,71,47.07,51.87,50.0,11.18
25,Aklavik,20,CA,1603077855,84,68.22,-135.01,5.0,7.18
26,Avarua,30,CK,1603077616,74,-21.21,-159.78,78.8,5.82
27,Ohafia,100,NG,1603077855,100,5.62,7.83,72.03,1.43
28,Hasaki,75,JP,1603077855,68,35.73,140.83,66.0,5.82
29,Sosnovo-Ozerskoye,100,RU,1603077855,69,52.52,111.54,39.76,4.9
30,Qaanaaq,49,GL,1603077855,87,77.48,-69.36,26.73,6.89
31,Saint-Philippe,75,RE,1603077856,53,-21.36,55.77,75.2,4.7
32,Toora-Khem,100,RU,1603077856,86,52.47,96.11,29.84,10.85
33,Port-Cartier,75,CA,1603077856,80,50.03,-66.87,39.99,8.05
34,Zharkent,0,KZ,1603077856,39,44.16,80.0,54.32,7.52
35,Dhidhdhoo,100,MV,1603077670,77,6.88,73.1,82.06,12.95
36,Ushuaia,20,AR,1603077856,74,-54.8,-68.3,37.4,16.11
37,Umm Kaddadah,5,SD,1603077856,17,13.6,26.69,80.06,5.37
38,Carnarvon,48,AU,1603077856,64,-24.87,113.63,75.2,17.22
39,Bredasdorp,88,ZA,1603077856,87,-34.53,20.04,57.2,2.24
40,São Filipe,95,CV,1603077856,81,14.9,-24.5,80.13,4.14
41,Ciudad Bolivar,6,VE,1603077856,67,8.12,-63.55,81.57,3.31
42,Chara,33,RU,1603077856,89,56.91,118.26,27.81,1.48
43,Katsuura,75,JP,1603077856,55,35.13,140.3,64.4,8.05
44,Bada,100,RU,1603077857,56,51.39,109.87,44.85,1.48
45,Kruisfontein,100,ZA,1603077857,92,-34.0,24.73,51.01,1.01
46,Saldanha,65,ZA,1603077824,87,-33.01,17.94,48.2,2.24
47,Lagos de Moreno,40,MX,1603077857,26,21.35,-101.92,69.8,6.93
48,Verkhovazh'ye,97,RU,1603077857,94,60.75,42.05,32.97,8.79
49,Punta Arenas,75,CL,1603077857,74,-53.15,-70.92,37.4,34.45
50,Hobart,75,AU,1603077616,51,-42.88,147.33,63.0,6.93
51,Mergen,0,CN,1603077857,55,49.18,125.22,46.17,3.65
52,Constantine,0,DZ,1603077857,81,36.37,6.61,44.6,1.99
53,Pochutla,93,MX,1603077857,80,15.74,-96.47,80.01,4.03
54,Vardø,40,NO,1603077857,80,70.37,31.11,30.2,6.93
55,San Patricio,20,US,1603077857,83,28.02,-97.52,78.8,11.41
56,Lebu,51,CL,1603077857,87,-37.62,-73.65,48.52,1.21
57,Carndonagh,100,IE,1603077858,92,55.25,-7.27,51.8,12.41
58,Thompson,75,CA,1603077858,100,55.74,-97.86,24.8,3.36
59,Seregélyes,2,HU,1603077858,90,47.11,18.57,46.0,4.0
60,Tirat Carmel,0,IL,1603077858,68,32.76,34.97,72.72,7.65
61,Severnyy,40,RU,1603077858,86,50.68,36.55,39.2,8.95
62,Upernavik,100,GL,1603077858,85,72.79,-56.15,33.1,8.23
63,Port Alfred,77,ZA,1603077858,84,-33.59,26.89,58.89,1.14
64,Hilo,90,US,1603077589,83,19.73,-155.09,78.8,6.93
65,Chokurdakh,92,RU,1603077858,98,70.63,147.92,19.85,5.84
66,Yenagoa,65,NG,1603077858,95,4.92,6.26,75.43,3.89
67,Grand Gaube,0,MU,1603077858,65,-20.01,57.66,77.0,8.99
68,Verkhoyansk,100,RU,1603077858,94,67.54,133.38,17.15,6.93
69,Dudinka,90,RU,1603077858,85,69.41,86.18,12.2,8.95
70,Longyearbyen,40,SJ,1603077858,79,78.22,15.64,24.8,10.29
71,La Sarre,100,CA,1603077858,93,48.8,-79.2,33.48,6.73
72,Kaitangata,100,NZ,1603077859,85,-46.28,169.85,52.0,4.97
73,Rauma,40,FI,1603077859,81,61.13,21.51,32.0,5.82
74,Tasiilaq,98,GL,1603077859,94,65.61,-37.64,32.0,1.12
75,Saint George,1,US,1603077859,13,37.1,-113.58,73.99,4.7
76,Ternate,99,ID,1603077859,70,0.8,127.4,84.49,9.35
77,Ponta do Sol,75,PT,1603077859,83,32.67,-17.1,73.4,34.45
78,Javorník,94,CZ,1603077859,87,50.39,17.0,44.01,1.01
79,Saint-Augustin,100,CA,1603077859,74,51.23,-58.65,44.33,1.99
80,Bonaventure,1,CA,1603077859,71,48.05,-65.49,33.8,2.24
81,Poum,0,NC,1603077859,65,-20.23,164.02,74.8,10.49
82,Mujiayingzi,14,CN,1603077859,35,42.12,118.78,56.66,9.17
83,Lompoc,90,US,1603077595,93,34.64,-120.46,59.0,6.93
84,Iqaluit,20,CA,1603077859,93,63.75,-68.51,32.0,16.11
85,Wanning,98,CN,1603077859,85,18.8,110.4,78.28,19.62
86,Bilibino,97,RU,1603077859,95,68.05,166.44,19.42,1.86
87,Clyde River,90,CA,1603077859,96,70.47,-68.59,33.8,27.51
88,George Town,20,MY,1603077794,74,5.41,100.34,87.8,2.24
89,Nyurba,26,RU,1603077860,89,63.28,118.33,22.44,4.88
90,Lakki,0,PK,1603077860,15,32.61,70.91,80.49,1.77
91,Sechura,84,PE,1603077860,78,-5.56,-80.82,65.66,11.52
92,Mareeba,0,AU,1603077860,51,-17.0,145.43,90.0,9.17
93,Kidal,70,ML,1603077860,17,18.44,1.41,82.35,11.45
94,Bethel,68,US,1603077860,93,41.37,-73.41,48.0,3.49
95,Sisophon,100,KH,1603077860,89,13.59,102.97,74.48,4.16
96,Laguna,1,US,1603077826,46,38.42,-121.42,75.99,4.63
97,Aiquile,22,BO,1603077860,63,-18.2,-65.18,63.27,2.84
98,Elban,100,RU,1603077860,63,50.1,136.51,39.54,13.51
99,Teya,100,RU,1603077860,91,60.38,92.63,26.85,15.35
100,Tambura,32,SS,1603077860,97,5.6,27.47,66.49,1.39
101,Hithadhoo,58,MV,1603077860,75,-0.6,73.08,82.96,12.91
102,Hermanus,73,ZA,1603077861,88,-34.42,19.23,57.0,1.01
103,Yellowknife,90,CA,1603077742,92,62.46,-114.35,23.0,2.24
104,Kapaa,75,US,1603077861,88,22.08,-159.32,81.0,5.82
105,Castro,81,BR,1603077697,90,-24.79,-50.01,60.66,8.95
106,Nāndūra Buzurg,7,IN,1603077861,81,20.83,76.45,80.47,2.82
107,Omsukchan,90,RU,1603077861,93,62.53,155.8,27.14,3.76
108,Bubaque,5,GW,1603077861,87,11.28,-15.83,81.79,14.72
109,Nikolskoye,75,RU,1603077861,89,59.7,30.79,35.6,8.95
110,Hualmay,13,PE,1603077861,84,-11.1,-77.61,61.72,8.55
111,Dunedin,100,NZ,1603077733,86,-45.87,170.5,52.0,8.5
112,Yulara,75,AU,1603077861,69,-25.24,130.99,73.4,19.46
113,Atuona,1,PF,1603077861,76,-9.8,-139.03,78.31,19.53
114,Ilulissat,100,GL,1603077861,40,69.22,-51.1,51.8,23.04
115,Matara,85,LK,1603077862,72,5.95,80.54,83.03,13.22
116,Aranos,13,NA,1603077671,26,-24.13,19.12,65.71,7.36
117,East London,40,ZA,1603077862,87,-33.02,27.91,55.4,2.24
118,Saint-Joseph,75,RE,1603077862,53,-21.37,55.62,75.2,4.7
119,Cape Town,90,ZA,1603077862,87,-33.93,18.42,61.0,8.05
120,Dublin,1,US,1603077766,60,37.7,-121.94,69.01,3.36
121,Marmari,20,GR,1603077862,59,38.05,24.32,64.4,5.82
122,Margate,100,GB,1603077862,80,51.38,1.39,51.01,10.07
123,Husavik,90,IS,1603077862,80,66.04,-17.34,39.2,9.17
124,Pisco,0,PE,1603077862,72,-13.7,-76.22,64.4,6.93
125,Mogadishu,16,SO,1603077862,82,2.04,45.34,78.33,9.42
126,Ol'ga,0,RU,1603077862,38,43.74,135.29,55.18,5.68
127,Almeirim,57,BR,1603077863,86,-1.52,-52.58,75.52,4.45
128,Namatanai,66,PG,1603077863,60,-3.67,152.43,86.41,3.04
129,Anadyr,97,RU,1603077863,86,64.75,177.48,32.0,2.24
130,Port Hardy,75,CA,1603077863,100,50.7,-127.42,50.0,2.24
131,Isangel,75,VU,1603077863,65,-19.55,169.27,82.4,8.97
132,Caravelas,95,BR,1603077863,78,-17.71,-39.25,72.57,7.87
133,Nālūt,0,LY,1603077863,66,30.33,10.85,56.05,14.76
134,Cayenne,0,GF,1603077863,100,4.93,-52.33,75.2,9.08
135,Doha,0,QA,1603077607,54,25.29,51.53,82.4,4.7
136,Innisfail,0,AU,1603077863,64,-17.53,146.03,79.72,7.92
137,Kaniama,100,CD,1603077863,94,-7.57,24.18,66.45,2.21
138,Mananara,5,MG,1603077863,85,-16.17,49.77,71.15,4.18
139,Port-Gentil,98,GA,1603077863,88,-0.72,8.78,78.24,14.25
140,Zhangaözen,0,KZ,1603077863,36,43.3,52.8,53.83,15.95
141,Santa Vitória do Palmar,0,BR,1603077863,85,-33.52,-53.37,63.3,6.87
142,Oneida,90,US,1603077864,54,43.2,-75.47,55.99,10.29
143,Santa Clara,75,CU,1603077864,88,22.4,-79.97,77.0,12.75
144,Pitimbu,75,BR,1603077864,88,-7.47,-34.81,75.2,5.82
145,Luorong,99,CN,1603077864,74,24.41,109.61,62.69,12.93
146,Ouadda,57,CF,1603077864,92,8.08,22.4,66.42,2.46
147,Banjar,40,ID,1603077864,70,-8.19,114.97,86.0,12.75
148,Lorengau,81,PG,1603077864,73,-2.02,147.27,84.63,5.5
149,Butaritari,35,KI,1603077864,72,3.07,172.79,81.93,16.02
150,Yibin,100,CN,1603077864,84,28.77,104.62,59.76,1.03
151,Solikamsk,100,RU,1603077864,96,59.62,56.77,39.85,9.71
152,Lanzhou,100,CN,1603077864,49,36.06,103.79,55.99,2.33
153,Megion,40,RU,1603077864,92,61.03,76.11,26.6,11.18
154,Samarai,75,PG,1603077865,76,-10.62,150.67,82.38,8.12
155,Benghazi,100,LY,1603077865,74,32.12,20.07,72.27,14.41
156,Zhezkazgan,0,KZ,1603077865,59,47.8,67.71,42.39,8.37
157,Mar del Plata,90,AR,1603077865,94,-38.0,-57.56,71.6,26.4
158,Nhulunbuy,20,AU,1603077865,55,-12.23,136.77,87.8,10.29
159,Cidreira,0,BR,1603077865,81,-30.18,-50.21,67.51,21.72
160,Port Shepstone,87,ZA,1603077865,78,-30.74,30.45,66.0,5.46
161,Tarrafal,40,CV,1603077865,88,15.28,-23.77,77.0,3.36
162,Sitka,40,US,1603077865,80,57.05,-135.33,41.0,4.7
163,Klyuchi,3,RU,1603077865,82,52.27,79.17,34.79,5.99
164,Northam,100,GB,1603077865,87,51.03,-4.22,50.0,8.01
165,Chui,0,UY,1603077865,86,-33.7,-53.46,62.53,6.55
166,Coquimbo,0,CL,1603077865,93,-29.95,-71.34,51.8,3.36
167,Dovolnoye,49,RU,1603077865,90,54.5,79.67,32.65,11.68
168,La Ronge,90,CA,1603077866,68,55.1,-105.28,24.8,5.82
169,New Norfolk,99,AU,1603077866,61,-42.78,147.06,63.0,5.01
170,Catumbela,47,AO,1603077866,81,-12.43,13.55,73.63,4.52
171,Fortuna,90,US,1603077866,100,40.6,-124.16,57.0,4.7
172,Ozernovskiy,2,RU,1603077866,79,51.5,156.52,48.7,19.15
173,Los Llanos de Aridane,78,ES,1603077866,83,28.66,-17.92,75.2,14.99
174,Vorobyevka,78,RU,1603077866,83,50.65,40.92,38.77,3.85
175,Huarmey,6,PE,1603077866,82,-10.07,-78.15,62.94,7.61
176,Port Lincoln,2,AU,1603077866,60,-34.73,135.87,59.83,10.29
177,Rome,90,US,1603077866,54,43.21,-75.46,55.99,10.29
178,Baiyin,87,CN,1603077866,48,36.56,104.21,55.99,4.47
179,Hong Kong,2,HK,1603077866,71,22.29,114.16,79.0,1.01
180,Meulaboh,92,ID,1603077867,62,4.14,96.13,85.57,1.5
181,Timrå,94,SE,1603077867,74,62.49,17.33,33.8,19.46
182,Benguela,30,AO,1603077867,78,-12.58,13.41,74.23,4.07
183,Vostok,0,RU,1603077867,65,46.49,135.88,38.82,7.63
184,Storsteinnes,10,NO,1603077867,85,69.24,19.23,28.4,10.29
185,Flinders,75,AU,1603077867,59,-34.58,150.86,68.0,10.29
186,Constitución,0,CL,1603077867,78,-35.33,-72.42,48.92,10.51
187,Ahipara,55,NZ,1603077867,72,-35.17,173.17,64.17,12.8
188,Airai,75,TL,1603077867,33,-8.93,125.41,81.19,5.32
189,Chekmagush,99,RU,1603077867,75,55.13,54.66,49.42,14.58
190,Mantena,100,BR,1603077867,87,-18.78,-40.98,66.56,7.16
191,Kieta,37,PG,1603077867,68,-6.22,155.63,84.49,2.89
192,Coelho Neto,77,BR,1603077867,76,-4.26,-43.01,75.72,4.05
193,Cherskiy,83,RU,1603077868,93,68.75,161.3,23.27,6.91
194,Lavrentiya,17,RU,1603077868,86,65.58,-171.0,35.58,4.81
195,Meadow Lake,1,US,1603077868,15,34.8,-106.54,70.0,6.93
196,Tojšići,75,BA,1603077868,88,44.5,18.79,32.0,1.12
197,Souillac,40,MU,1603077868,69,-20.52,57.52,75.2,11.41
198,Luena,0,AO,1603077868,76,-11.78,19.92,62.49,2.77
199,Devonport,77,AU,1603077868,57,-41.17,146.35,62.01,3.0
200,Wasilla,90,US,1603077735,95,61.58,-149.44,33.01,3.36
201,San Francisco,1,US,1603077583,63,37.77,-122.42,69.8,10.29
202,Olafsvik,26,IS,1603077868,75,64.89,-23.71,41.47,30.74
203,Kitgum,81,UG,1603077868,95,3.28,32.89,65.3,2.19
204,Port Elizabeth,40,ZA,1603077868,93,-33.92,25.57,53.6,2.53
205,Klaksvík,100,FO,1603077868,86,62.23,-6.59,41.0,5.82
206,Gonder,8,ET,1603077868,66,12.6,37.47,55.0,4.45
207,Katwijk,86,NL,1603077869,93,52.19,4.42,48.0,1.99
208,Usvyaty,78,RU,1603077869,87,55.75,30.75,36.82,8.93
209,Chingirlau,16,KZ,1603077869,44,51.09,54.08,48.96,10.8
210,Mizdah,0,LY,1603077869,75,31.45,12.98,54.01,4.74
211,Boyolangu,85,ID,1603077869,70,-8.12,111.89,82.58,7.43
212,Port Blair,100,IN,1603077869,82,11.67,92.75,82.17,16.82
213,Ribeira Grande,7,PT,1603077869,72,38.52,-28.7,63.12,22.17
214,Kavaratti,22,IN,1603077869,78,10.57,72.64,80.94,10.27
215,Faanui,65,PF,1603077869,78,-16.48,-151.75,79.84,9.89
216,Shīeli,0,KZ,1603077869,32,44.17,66.75,57.25,9.31
217,Inírida,74,CO,1603077869,87,3.87,-67.92,75.18,2.8
218,Kirakira,88,SB,1603077869,73,-10.45,161.92,84.49,8.1
219,Barcelos,96,PT,1603077869,67,41.54,-8.62,62.01,5.82
220,Waipawa,99,NZ,1603077869,93,-41.41,175.52,60.8,31.09
221,Kavieng,63,PG,1603077870,63,-2.57,150.8,85.93,6.62
222,Ust-Kuyga,100,RU,1603077870,96,70.02,135.6,20.8,7.16
223,Geraldton,90,AU,1603077788,69,-28.77,114.6,73.4,12.75
224,Puerto Escondido,40,MX,1603077870,69,15.85,-97.07,82.4,3.36
225,Lima,7,PE,1603077794,82,-12.04,-77.03,62.6,11.41
226,Tuatapere,100,NZ,1603077870,88,-46.13,167.68,46.87,4.36
227,Mabaruma,34,GY,1603077870,86,8.2,-59.78,74.88,3.02
228,Port Macquarie,100,AU,1603077870,81,-31.43,152.92,66.0,1.99
229,Gravdal,0,NO,1603077870,80,68.12,13.5,30.2,2.24
230,Talavera de la Reina,7,ES,1603077870,44,39.96,-4.83,54.27,7.99
231,Pacific Grove,75,US,1603077589,87,36.62,-121.92,60.8,3.36
232,Gillette,90,US,1603077870,92,44.29,-105.5,30.2,16.11
233,Salalah,75,OM,1603077870,41,17.02,54.09,75.2,2.24
234,Eunice,40,US,1603077870,83,30.49,-92.42,73.4,4.7
235,Minot,90,US,1603077705,63,48.23,-101.3,26.6,10.29
236,Batagay-Alyta,97,RU,1603077871,86,67.8,130.41,17.17,3.58
237,Corinth,3,GR,1603077871,57,37.94,22.96,59.0,1.99
238,Pangnirtung,100,CA,1603077871,93,66.15,-65.71,32.68,3.91
239,Lakselv,24,NO,1603077871,100,70.05,24.97,28.4,8.05
240,Beisfjord,52,NO,1603077871,79,68.38,17.6,24.8,13.87
241,Yashan,95,CN,1603077871,72,22.2,109.94,71.26,11.27
242,Taoudenni,0,ML,1603077871,18,22.68,-3.98,77.81,6.17
243,Baft,0,IR,1603077871,29,29.23,56.61,48.43,3.36
244,Roebourne,0,AU,1603077871,29,-20.78,117.13,86.32,9.37
245,Norman Wells,20,CA,1603077871,84,65.28,-126.83,6.8,3.36
246,Shyroke,6,UA,1603077871,86,47.69,33.26,41.0,7.52
247,Conceição da Barra,98,BR,1603077872,75,-18.59,-39.73,72.82,7.4
248,Bathsheba,20,BB,1603077872,88,13.22,-59.52,77.0,3.36
249,Buala,23,SB,1603077872,68,-8.14,159.59,86.29,5.3
250,Sinnamary,1,GF,1603077872,81,5.38,-52.95,80.01,9.66
251,City of San Pedro,75,PH,1603077872,59,14.35,121.02,89.6,9.17
252,Codrington,98,AU,1603077872,73,-38.27,141.97,56.46,7.81
253,Manaus,72,BR,1603077872,88,-3.1,-60.02,80.6,1.12
254,Mahébourg,40,MU,1603077872,69,-20.41,57.7,75.2,11.41
255,Hamilton,90,US,1603077763,82,39.18,-84.53,57.2,6.93
256,Yining,33,CN,1603077872,66,29.04,114.56,66.38,3.78
257,Cabo San Lucas,5,MX,1603077602,83,22.89,-109.91,82.0,10.29
258,Otane,100,NZ,1603077872,64,-39.88,176.63,66.99,10.0
259,Porosozero,100,RU,1603077872,99,62.72,32.73,31.8,4.99
260,Portland,63,US,1603077487,82,45.52,-122.68,63.0,1.01
261,Alyangula,32,AU,1603077873,49,-13.85,136.42,89.6,8.05
262,Atar,21,MR,1603077873,30,20.52,-13.05,84.58,8.75
263,Steamboat Springs,90,US,1603077873,32,40.48,-106.83,55.4,4.7
264,Challapata,55,BO,1603077873,51,-18.9,-66.77,51.51,9.75
265,Middelburg,24,ZA,1603077873,39,-25.78,29.46,68.72,5.39
266,Flin Flon,59,CA,1603077873,95,54.77,-101.86,24.66,7.7
267,Severo-Kuril'sk,32,RU,1603077873,76,50.68,156.12,50.05,12.5
268,Saint Paul Harbor,75,US,1603077873,81,57.79,-152.41,44.6,4.7
269,Merke,0,KZ,1603077873,33,42.87,73.18,57.38,5.14
270,Malé,75,MV,1603077700,79,4.17,73.51,84.2,13.87
271,Bengkulu,91,ID,1603077873,71,-3.8,102.27,82.65,1.01
272,Levelland,40,US,1603077873,75,33.59,-102.38,48.99,8.05
273,Smithers,90,CA,1603077860,92,54.78,-127.17,30.2,2.24
274,Kiomboi,8,TZ,1603077873,76,-4.27,34.37,58.89,3.04
275,Pangoa,92,PE,1603077787,95,-12.12,-73.0,67.26,3.27
276,Jalu,98,LY,1603077873,52,29.03,21.55,72.55,9.91
277,Mountain Home,1,US,1603077874,54,43.13,-115.69,55.4,3.36
278,Tigil',100,RU,1603077874,66,57.8,158.67,43.83,12.28
279,Lüderitz,0,NA,1603077874,50,-26.65,15.16,61.86,12.26
280,Smolenka,30,RU,1603077874,60,52.14,113.5,41.0,4.47
281,Pundaguitan,100,PH,1603077874,77,6.37,126.17,82.69,8.95
282,San Cristobal,89,VE,1603077645,83,7.77,-72.22,66.33,2.66
283,Naze,75,JP,1603077874,83,28.37,129.48,77.0,23.04
284,Ibrā’,0,OM,1603077874,17,22.69,58.53,75.92,9.91
285,Maţāy,0,EG,1603077874,76,28.42,30.78,67.8,8.84
286,Gryazi,75,RU,1603077875,77,52.5,39.94,35.6,8.95
287,Bella Union,0,UY,1603077875,75,-30.28,-57.6,70.12,9.08
288,Ponta Delgada,40,PT,1603077875,87,37.73,-25.67,59.0,20.8
289,Kyra,17,RU,1603077875,55,49.58,111.98,45.0,3.4
290,Kundiawa,63,PG,1603077875,60,-6.02,144.97,74.91,0.45
291,Narsaq,97,GL,1603077875,86,60.92,-46.05,39.2,3.36
292,Shenjiamen,97,CN,1603077875,64,29.96,122.3,67.21,14.94
293,Khatanga,0,RU,1603077875,89,71.97,102.5,8.42,8.39
294,Birao,27,CF,1603077875,62,10.28,22.79,69.73,1.34
295,Ürümqi,36,CN,1603077875,25,43.8,87.6,60.8,6.71
296,Lithgow,97,AU,1603077875,74,-33.48,150.15,60.01,3.0
297,Balkanabat,0,TM,1603077875,38,39.51,54.37,54.91,1.57
298,Nanortalik,96,GL,1603077875,86,60.14,-45.24,39.61,7.31
299,Deputatsky,100,RU,1603077875,95,69.3,139.9,12.7,6.93
300,Rawlins,1,US,1603077876,37,41.79,-107.24,52.0,17.22
301,Hanna,0,CA,1603077876,78,51.63,-111.9,19.0,1.99
302,Provideniya,20,RU,1603077876,86,64.38,-173.3,37.4,6.71
303,Fare,68,PF,1603077876,78,-16.7,-151.02,80.08,11.52
304,Selfoss,0,IS,1603077876,80,63.93,-21.0,39.0,4.0
305,Puerto Carreño,78,CO,1603077876,78,6.19,-67.49,79.38,3.4
306,Imbituba,75,BR,1603077876,88,-28.24,-48.67,69.8,4.7
307,St. George's,20,GD,1603077876,88,12.06,-61.75,80.6,4.7
308,Half Moon Bay,90,US,1603077876,93,37.46,-122.43,68.0,4.7
309,Bend,1,US,1603077577,66,44.06,-121.32,54.0,4.7
310,Touros,40,BR,1603077876,78,-5.2,-35.46,77.0,6.93
311,Kuusamo,40,FI,1603077876,98,65.97,29.18,32.0,12.75
312,Okhotsk,9,RU,1603077876,79,59.38,143.3,30.04,21.5
313,Amursk,100,RU,1603077877,63,50.23,136.9,39.47,15.88
314,Frontera,0,MX,1603077877,38,26.93,-101.45,82.99,4.0
315,Bud,90,US,1603077877,87,39.45,-86.18,50.0,4.7
316,Taldan,0,RU,1603077877,86,53.67,124.8,31.01,3.8
317,Kasongo-Lunda,100,CD,1603077877,93,-6.47,16.82,70.75,0.36
318,Pinega,100,RU,1603077877,98,64.7,43.39,30.11,9.62
319,Turukhansk,100,RU,1603077877,96,65.82,87.98,15.37,12.66
320,Oodweyne,0,SO,1603077877,47,9.41,45.06,69.03,3.87
321,Båtsfjord,40,NO,1603077877,80,70.63,29.72,30.2,6.93
322,Pietroasa,42,RO,1603077877,100,46.58,22.55,41.0,5.82
323,Gīdam,44,IN,1603077877,75,18.98,81.4,79.43,3.85
324,Vidalia,1,US,1603077877,77,32.22,-82.41,64.4,6.93
325,Abu Samrah,0,SY,1603077878,73,35.3,37.18,56.53,2.46
326,Mocuba,6,MZ,1603077878,96,-16.84,36.99,63.19,2.44
327,Bambous Virieux,40,MU,1603077878,69,-20.34,57.76,77.0,11.41
328,Riyadh,0,SA,1603077878,29,24.69,46.72,60.8,2.24
329,Leningradskiy,0,RU,1603077878,88,69.38,178.42,25.16,6.93
330,Puerto Ayacucho,76,VE,1603077878,84,5.66,-67.62,76.51,3.22
331,Chapada dos Guimarães,40,BR,1603077878,69,-15.46,-55.75,78.8,14.99
332,Bereda,100,ES,1603077878,100,43.27,-7.54,55.99,1.99
333,San Luis,0,AR,1603077602,52,-33.3,-66.34,70.66,17.36
334,Talnakh,20,RU,1603077878,92,69.49,88.4,10.4,13.42
335,Talaya,89,RU,1603077878,91,61.38,152.75,29.35,6.31
336,Noumea,49,NC,1603077878,42,-22.28,166.46,84.2,11.41
337,Taltal,45,CL,1603077878,76,-25.4,-70.48,57.43,0.72
338,Acapulco de Juárez,75,MX,1603077741,83,16.86,-99.89,84.2,9.17
339,Avera,1,US,1603077878,93,33.19,-82.53,59.0,4.7
340,Elko,1,US,1603077878,29,41.0,-115.5,54.0,4.7
341,Enumclaw,100,US,1603077878,89,47.2,-121.99,57.99,7.0
342,Nouadhibou,1,MR,1603077879,53,20.93,-17.03,77.0,16.11
343,Tombouctou,0,ML,1603077879,19,20.0,-3.0,84.67,8.1
344,Takoradze,55,GH,1603077879,88,4.88,-1.76,76.8,6.85
345,Gafanha da Encarnação,77,PT,1603077879,63,40.62,-8.73,62.01,11.41
346,Morón,0,AR,1603077879,68,-34.65,-58.62,81.0,5.99
347,Laiyang,0,CN,1603077879,25,36.98,120.71,68.83,4.59
348,Yar-Sale,0,RU,1603077879,95,66.83,70.83,20.1,7.54
349,Nachalovo,0,RU,1603077879,87,46.34,48.2,44.6,2.24
350,Saint-Leu,75,RE,1603077879,53,-21.15,55.28,75.2,4.7
351,Kralendijk,61,BQ,1603077879,79,12.15,-68.27,84.2,10.29
352,Richards Bay,93,ZA,1603077879,79,-28.78,32.04,70.43,9.06
353,Freeport,1,US,1603077818,81,40.66,-73.58,59.0,4.7
354,Skopje,0,MK,1603077879,93,42.0,21.43,35.6,2.95
355,Atikokan,53,CA,1603077880,90,48.76,-91.62,25.38,3.98
356,Rørvik,7,NO,1603077650,61,64.86,11.24,44.85,17.11
357,Baykit,100,RU,1603077880,92,61.67,96.37,26.71,13.62
358,São José da Coroa Grande,73,BR,1603077880,80,-8.9,-35.15,73.78,5.95
359,Tegul'det,100,RU,1603077880,93,57.31,88.17,30.27,13.04
360,Salina Cruz,20,MX,1603077880,72,16.17,-95.2,81.12,10.98
361,Birin,0,NP,1603077880,82,26.89,88.07,68.56,2.28
362,Kinna,82,SE,1603077880,86,57.51,12.69,46.99,3.36
363,Distrikt Brokopondo,60,SR,1603077880,75,4.75,-55.17,80.08,9.17
364,Saint-Pierre,75,RE,1603077880,53,-21.34,55.48,75.2,4.7
365,São João da Barra,72,BR,1603077880,78,-21.64,-41.05,71.69,15.32
366,Mori,75,JP,1603077880,72,34.83,137.93,60.8,6.93
367,Athabasca,0,CA,1603077880,81,54.72,-113.29,20.32,4.16
368,Palora,100,EC,1603077880,95,-1.7,-77.93,66.24,3.0
369,Havøysund,71,NO,1603077880,92,71.0,24.66,28.4,5.82
370,Vila Velha,90,BR,1603077756,100,-20.33,-40.29,68.0,3.36
371,Mount Gambier,90,AU,1603077881,54,-37.83,140.77,59.0,10.29
372,Aripuanã,99,BR,1603077881,97,-9.17,-60.63,71.82,2.3
373,Aksu,0,CN,1603077881,31,41.12,80.26,58.33,4.27
374,Warrnambool,83,AU,1603077881,67,-38.38,142.48,61.0,6.08
375,Verkhneural'sk,20,RU,1603077881,77,53.88,59.21,32.0,11.18
376,Srandakan,97,ID,1603077881,77,-7.94,110.25,80.67,8.05
377,Pokhara,38,NP,1603077881,60,28.23,83.98,75.72,2.46
378,Bidor,20,MY,1603077881,66,4.11,101.29,86.0,4.7
379,Esperance,90,AU,1603077881,73,-33.87,121.9,69.8,5.82
380,Lexington,90,US,1603077881,76,37.99,-84.48,57.0,3.36
381,Charters Towers,0,AU,1603077881,20,-20.1,146.27,92.14,5.97
382,Thaba-Tseka,1,LS,1603077881,41,-29.52,28.61,51.8,3.53
383,Agogo,80,GH,1603077882,100,6.8,-1.08,70.25,3.49
384,Necochea,78,AR,1603077882,93,-38.55,-58.74,57.99,10.0
385,Krasnosel'kup,66,RU,1603077882,97,65.7,82.47,16.54,9.69
386,Kotma,0,IN,1603077882,64,23.2,81.97,77.85,2.93
387,Serafimovich,96,RU,1603077882,76,49.58,42.74,45.57,4.65
388,Korla,0,CN,1603077882,34,41.76,86.15,56.91,4.16
389,Guozhen,10,CN,1603077882,31,34.37,107.36,64.33,2.86
390,Dingle,97,PH,1603077882,74,11.0,122.67,85.91,8.5
391,Arraial do Cabo,99,BR,1603077882,80,-22.97,-42.03,71.53,22.7
392,Santa Maria,0,BR,1603077584,73,-29.68,-53.81,65.88,5.1
393,Kahului,40,US,1603077872,52,20.89,-156.47,87.8,5.82
394,Cordele,1,US,1603077882,77,31.96,-83.78,66.2,6.93
395,Karla,90,EE,1603077882,93,59.37,24.93,39.99,12.75
396,Tual,41,ID,1603077882,79,-5.67,132.75,80.87,12.97
397,Tupelo,1,US,1603077603,72,34.26,-88.7,64.4,7.7
398,Careiro da Várzea,93,BR,1603077883,88,-3.2,-59.81,80.6,1.12
399,Coahuayana Viejo,99,MX,1603077883,89,18.73,-103.68,79.9,0.85
400,Tawang Town,0,IN,1603077883,30,27.58,91.87,63.21,4.38
401,Faya,0,SA,1603077883,30,18.39,42.45,53.6,8.05
402,Rio Grande,0,BR,1603077761,94,-32.03,-52.1,66.0,12.35
403,Severo-Yeniseyskiy,100,RU,1603077883,93,60.37,93.04,23.47,16.64
404,Caucayá,100,CO,1603077883,97,-0.19,-74.78,72.18,2.1
405,Maridi,41,SS,1603077883,98,4.92,29.47,66.07,1.52
406,Mayo,40,US,1603077874,87,38.89,-76.51,59.0,4.7
407,Ancud,75,CL,1603077883,93,-41.87,-73.82,45.0,4.7
408,Ubari,95,LY,1603077883,72,26.59,12.78,68.81,15.84
409,Sosnogorsk,100,RU,1603077883,98,63.6,53.88,30.13,7.02
410,Kununurra,16,AU,1603077884,32,-15.77,128.73,98.6,5.82
411,San Ramon,1,US,1603077778,60,37.78,-121.98,71.01,3.36
412,Barra de Tecoanapa,96,MX,1603077884,79,16.52,-98.75,82.27,7.07
413,Guerrero Negro,99,MX,1603077884,75,27.98,-114.06,72.27,7.2
414,Lienz,67,AT,1603077884,96,46.83,12.77,33.01,2.57
415,Anchorage,90,US,1603077516,74,61.22,-149.9,35.6,4.7
416,Makakilo City,20,US,1603077634,69,21.35,-158.09,82.4,9.17
417,Ostrovnoy,100,RU,1603077884,80,68.05,39.51,36.37,15.55
418,Barão de Melgaço,40,BR,1603077884,69,-16.19,-55.97,78.8,14.99
419,Vanimo,100,PG,1603077884,74,-2.67,141.3,83.89,5.3
420,Dongsheng,0,CN,1603077884,38,39.82,109.98,50.65,12.93
421,Aleksandrov Gay,100,RU,1603077884,88,50.15,48.57,56.34,5.46
422,Swift Current,90,CA,1603077884,72,50.28,-107.8,17.6,5.82
423,Mucurapo,20,TT,1603077884,88,10.67,-61.53,78.01,7.38
424,Río Bueno,89,CL,1603077884,87,-40.32,-72.97,48.2,8.05
425,San Rafael del Sur,40,NI,1603077885,83,11.85,-86.44,80.6,4.7
426,Hay River,75,CA,1603077885,79,60.82,-115.8,19.4,5.82
427,Bollnäs,6,SE,1603077885,85,61.35,16.39,32.65,10.94
428,Soe,10,ID,1603077885,31,-9.86,124.28,88.9,8.3
429,Union,1,US,1603077885,81,40.63,-74.27,57.2,5.53
430,Dukat,73,RU,1603077885,93,62.55,155.55,24.26,3.51
431,Kuril'sk,36,RU,1603077885,69,45.23,147.88,55.13,15.52
432,Beloha,0,MG,1603077885,84,-25.17,45.05,64.27,9.46
433,Ciudad Guayana,0,VE,1603077885,76,8.35,-62.65,81.0,1.01
434,Pervomayskiy,100,RU,1603077885,69,53.25,40.29,41.77,14.38
435,Platonovka,14,RU,1603077885,78,52.71,41.95,38.17,6.46
436,Vila do Maio,40,CV,1603077885,88,15.13,-23.22,77.0,3.36
437,Sabang,99,ID,1603077885,71,5.89,95.32,83.62,7.38
438,El Cobre,20,CU,1603077885,94,20.05,-75.95,75.2,4.7
439,North Platte,90,US,1603077761,86,41.12,-100.77,30.2,13.87
440,Solnechnyy,100,RU,1603077886,60,50.72,136.63,37.81,4.94
441,Upington,0,ZA,1603077886,21,-28.45,21.26,62.6,6.93
442,Prince Rupert,90,CA,1603077886,100,54.32,-130.32,42.8,2.24
443,Alta Floresta,100,BR,1603077886,96,-9.88,-56.09,70.83,2.77
444,Luang Prabang,90,LA,1603077886,64,19.89,102.13,75.2,9.17
445,Ambon City,40,ID,1603077886,59,-3.7,128.18,89.6,6.93
446,Yeppoon,0,AU,1603077886,29,-23.13,150.73,89.6,4.7
447,Sansare,40,GT,1603077886,93,14.75,-90.11,64.4,9.17
448,Malanje,95,AO,1603077886,96,-9.54,16.34,66.7,6.55
449,Oranjemund,51,NA,1603077886,91,-28.55,16.43,55.83,6.29
450,Camacha,40,PT,1603077886,83,33.08,-16.33,73.4,24.16
451,Recodo,75,PH,1603077886,70,6.95,121.96,87.8,6.93
452,Pachino,0,IT,1603077887,79,36.72,15.09,60.01,4.0
453,Alihe,38,CN,1603077887,58,50.57,123.72,44.62,1.83
454,Ixtapa,40,MX,1603077887,83,20.7,-105.2,84.2,2.57
455,Anloga,40,GH,1603077887,88,5.79,0.9,78.8,4.7
456,Dedovichi,31,RU,1603077887,90,57.55,29.95,34.63,10.47
457,Jérémie,94,HT,1603077887,73,18.65,-74.12,80.04,1.05
458,Srednekolymsk,86,RU,1603077887,96,67.45,153.68,25.56,3.18
459,Belaya Gora,96,RU,1603077887,97,68.53,146.42,20.97,7.09
460,Virginia Beach,75,US,1603077864,77,36.85,-75.98,64.99,6.93
461,Sept-Îles,75,CA,1603077887,80,50.2,-66.38,39.99,8.05
462,Mahajanga,20,MG,1603077887,64,-15.72,46.32,73.4,6.93
463,Ouésso,100,CG,1603077888,95,1.61,16.05,69.85,2.95
464,Narrabri,40,AU,1603077888,47,-30.32,149.78,75.2,11.41
465,Vinh Yen,100,VN,1603077888,60,21.31,105.6,71.6,8.05
466,Rolante,0,BR,1603077888,80,-29.65,-50.58,69.01,4.03
467,Riachão das Neves,89,BR,1603077888,47,-11.75,-44.91,79.48,3.62
468,Sulangan,100,PH,1603077888,75,11.14,123.72,84.36,9.35
469,Pyaozerskiy,100,RU,1603077888,95,65.83,31.17,33.73,16.93
470,Esna,0,EG,1603077888,43,25.29,32.55,73.4,5.1
471,Itarema,17,BR,1603077888,85,-2.92,-39.92,78.4,13.49
472,Salisbury,100,GB,1603077888,93,51.07,-1.8,48.0,5.82
473,Biak,100,ID,1603077888,70,-0.91,122.88,82.6,6.76
474,Province of Mantua,31,IT,1603077889,95,45.17,10.78,48.99,2.33
475,Antofagasta,90,CL,1603077889,87,-23.65,-70.4,57.2,8.05
476,Ouro Preto do Oeste,97,BR,1603077889,70,-10.75,-62.22,77.14,3.4
477,Grand Forks,90,US,1603077889,50,47.94,-97.43,30.2,4.7
478,Shingū,75,JP,1603077889,87,33.73,135.98,60.8,3.36
479,Aden,0,YE,1603077889,64,12.78,45.04,83.32,6.89
480,Lata,65,PT,1603077889,75,40.16,-8.33,62.01,7.0
481,Palmer,75,US,1603077889,81,42.16,-72.33,46.0,2.73
482,Raduzhny,14,RU,1603077889,97,62.1,77.47,25.3,10.36
483,Roald,93,NO,1603077889,86,62.58,6.13,39.2,4.7
484,Gouré,0,NE,1603077726,22,13.98,10.27,81.0,1.01
485,Dikson,24,RU,1603077889,95,73.51,80.55,26.62,28.34
486,Kargasok,97,RU,1603077889,93,59.06,80.86,30.34,13.15
487,Bom Jesus,12,BR,1603077890,35,-9.07,-44.36,79.38,3.0
488,Mbarara,95,UG,1603077890,90,-0.61,30.65,62.65,3.42
489,Fort Myers Beach,20,US,1603077704,94,26.45,-81.95,78.01,10.29
490,Belyy Yar,15,RU,1603077890,59,53.6,91.39,35.6,13.42
491,Coyhaique,75,CL,1603077633,86,-45.58,-72.07,37.4,5.82
492,Bilma,0,NE,1603077890,18,18.69,12.92,77.77,4.36
493,Korem,1,ET,1603077890,93,12.51,39.52,49.06,1.28
494,Mandalī,0,IQ,1603077890,25,33.75,45.55,68.32,6.13
495,Vestmannaeyjar,0,IS,1603077890,66,63.44,-20.27,43.81,11.83
496,Misratah,0,LY,1603077890,59,32.38,15.09,70.12,14.79
497,Yamada,92,JP,1603077890,53,39.47,141.95,65.3,2.91
498,Gympie,3,AU,1603077890,28,-26.19,152.66,84.0,1.99
499,Erdenet,100,MN,1603077891,52,49.03,104.08,43.36,4.63
500,Obo,32,CF,1603077891,95,5.4,26.49,66.27,2.04
501,Piura,94,PE,1603077891,73,-5.2,-80.63,67.05,10.76
502,Tongchuanshi,0,CN,1603077891,34,35.08,109.09,60.82,4.7
503,Kuytun,100,RU,1603077891,82,54.34,101.5,33.84,14.16
504,Bacolod City,93,PH,1603077891,71,10.67,122.95,86.31,9.4
505,Ketchikan,90,US,1603077891,93,55.34,-131.65,42.8,4.7
506,Rocha,0,UY,1603077891,85,-34.48,-54.33,64.94,7.61
507,Puerto Baquerizo Moreno,94,EC,1603077746,87,-0.9,-89.6,69.3,13.38
508,Moyo,89,UG,1603077892,99,3.66,31.72,64.87,2.68
509,San Andrés,75,CO,1603077892,83,12.58,-81.7,82.4,5.82
510,Alofi,100,NU,1603077892,84,-19.06,-169.92,74.57,16.55
511,Sakakah,0,SA,1603077892,18,29.97,40.21,62.6,4.83
512,Talcahuano,25,CL,1603077663,87,-36.72,-73.12,53.6,11.41
513,Beringovskiy,20,RU,1603077892,78,63.05,179.32,36.36,4.88
514,Kovdor,100,RU,1603077892,94,67.57,30.48,28.47,9.19
515,Abalak,100,RU,1603077892,96,58.13,68.59,32.52,13.87
516,Río Gallegos,90,AR,1603077892,60,-51.62,-69.22,41.0,16.11
517,Alice Springs,75,AU,1603077855,44,-23.7,133.88,75.2,11.41
518,Viedma,0,AR,1603077615,25,-40.81,-63.0,62.01,5.01
519,Katobu,70,ID,1603077892,44,-4.94,122.53,91.67,6.17
520,Finnsnes,0,NO,1603077892,85,69.23,17.98,14.0,10.29
521,Mehamn,40,NO,1603077893,78,71.04,27.85,33.8,8.05
522,Serebryansk,90,KZ,1603077893,92,49.69,83.29,30.2,2.24
523,eMkhomazi,97,ZA,1603077893,94,-30.21,30.8,66.99,5.19
524,Benjamin Constant,40,BR,1603077893,100,-4.38,-70.03,75.2,1.14
525,Shelburne,90,CA,1603077893,93,44.08,-80.2,44.01,9.17
526,Fairbanks,90,US,1603077720,62,64.84,-147.72,21.2,2.26
527,Jambi City,80,ID,1603077893,61,-1.6,103.62,87.76,4.0
528,Savannah Bight,36,HN,1603077893,75,16.45,-85.85,82.92,9.69
529,Khorixas,0,NA,1603077893,30,-20.37,14.97,66.94,4.63
530,Port Hedland,0,AU,1603077893,43,-20.32,118.57,87.8,16.11
531,Tura,0,IN,1603077893,74,25.52,90.22,83.14,0.63
532,Les Cayes,93,HT,1603077894,78,18.2,-73.75,78.13,3.89
533,Onguday,51,RU,1603077894,88,50.75,86.15,28.31,1.21
534,Tyukhtet,100,RU,1603077894,91,56.54,89.3,30.15,14.74
535,Cockburn Town,98,TC,1603077894,75,21.46,-71.14,82.29,14.67
536,Calabozo,26,VE,1603077894,94,8.92,-67.43,74.68,2.08
537,Tadine,10,NC,1603077894,69,-21.55,167.88,75.83,14.05
538,Digby,23,CA,1603077894,90,44.62,-65.77,39.99,1.99
539,Sabha,64,LY,1603077894,71,27.04,14.43,71.24,18.77
540,Kedrovyy,40,RU,1603077894,94,56.17,91.82,32.0,15.66
541,São Paulo de Olivença,91,BR,1603077894,87,-3.38,-68.87,73.45,2.26
542,Mnogovershinnyy,100,RU,1603077895,96,53.94,139.92,25.16,14.9
543,Sumé,63,BR,1603077635,91,-7.67,-36.88,64.83,10.58
544,Panguna,65,PG,1603077895,82,-6.32,155.48,78.57,1.39
545,Nicoya,20,CR,1603077895,88,10.15,-85.45,78.8,8.05
546,Wanaka,100,NZ,1603077687,81,-44.7,169.15,50.56,3.24
547,Suez,0,EG,1603077895,84,29.97,32.53,69.01,7.56
548,Kamenka,23,RU,1603077895,85,51.32,42.77,39.0,6.35
549,Oistins,20,BB,1603077895,88,13.07,-59.53,77.0,3.36
550,Trat,40,TH,1603077895,83,12.5,102.5,82.4,2.24
551,Mayumba,97,GA,1603077895,89,-3.43,10.66,77.11,10.6
552,College,90,US,1603077686,62,64.86,-147.8,21.2,2.24
553,Marrakesh,44,MA,1603077895,59,31.63,-8.01,64.4,4.7
554,Marawi,97,PH,1603077895,80,8.0,124.29,82.0,4.0
555,Katangli,10,RU,1603077895,71,51.71,143.23,36.18,17.18
